City_ID,City,Lat,Lng,Max Temp,Humidity,Cloudiness,Wind Speed,Country,Date
0,adamstown,-25.066,-130.1015,23.59,62,94,11.71,PN,1711848548
1,grytviken,-54.2811,-36.5092,0.37,81,23,5.48,GS,1711848548
2,whitehorse,60.7161,-135.0538,5.01,50,100,2.24,CA,1711848548
3,al jawf,29.5,38.75,12.54,73,0,2.62,SA,1711848548
4,bethel,41.3712,-73.414,13.2,31,100,2.06,US,1711848548
5,puerto ayora,-0.7393,-90.3518,25.86,95,97,2.68,EC,1711848548
6,tindouf,27.6711,-8.1474,14.25,58,0,2.06,DZ,1711848548
7,blackmans bay,-43.0167,147.3167,18.18,77,65,0.45,AU,1711848548
8,invercargill,-46.4,168.35,12.79,84,100,0.89,NZ,1711848549
9,puerto baquerizo moreno,-0.9,-89.6,25.29,78,42,4.32,EC,1711848549
10,ushuaia,-54.8,-68.3,3.81,70,75,2.57,AR,1711848549
11,port-aux-francais,-49.35,70.2167,4.67,80,100,10.05,TF,1711848549
12,bilibino,68.0546,166.4372,-23.33,79,7,2.15,RU,1711848549
13,college,64.8569,-147.8028,7.18,41,100,6.17,US,1711848549
14,waitangi,-43.9535,-176.5597,16.01,96,100,2.68,NZ,1711848549
15,utrik,11.2278,169.8474,26.87,80,54,10.41,MH,1711848549
16,howard springs,-12.497,131.047,31.01,74,48,3.39,AU,1711848549
17,edinburgh of the seven seas,-37.0676,-12.3116,14.69,62,70,2.14,SH,1711848323
18,salinopolis,-0.6136,-47.3561,26.24,87,100,1.73,BR,1711848550
19,songyuan,45.1171,124.8568,-1.26,41,7,5.59,CN,1711848550
20,ataq,14.5377,46.8319,19.8,56,100,3.96,YE,1711848550
21,isafjordur,66.0755,-23.124,-3.99,71,94,13.26,IS,1711848550
22,susuman,62.7833,148.1667,-8.34,96,100,1.34,RU,1711848550
23,kapuskasing,49.4169,-82.4331,-1.95,59,75,2.57,CA,1711848550
24,mar del plata,-38.0023,-57.5575,17.19,66,0,6.26,AR,1711848002
25,talnakh,69.4865,88.3972,-8.8,95,100,0.73,RU,1711848550
26,kuching,1.55,110.3333,29.43,90,20,2.06,MY,1711848534
27,nantucket,41.2835,-70.0995,8.89,71,0,4.63,US,1711848274
28,kruisfontein,-34.0033,24.7314,16.6,74,3,2.48,ZA,1711848551
29,ongjin,37.9347,125.3619,8.54,32,18,2.24,KP,1711848551
30,hermanus,-34.4187,19.2345,21.47,58,5,1.76,ZA,1711848551
31,tshela,-4.9833,12.9333,23.58,98,100,0.52,CD,1711848551
32,mukalla,14.5425,49.1242,25.69,69,100,2.37,YE,1711848551
33,cabo san lucas,22.8909,-109.9124,25.34,66,75,8.23,MX,1711848029
34,albany,42.6001,-73.9662,7.23,50,100,0.45,US,1711848008
35,ulsteinvik,62.3432,5.8487,7.64,84,100,0.45,NO,1711848552
36,ciudad de armeria,18.9333,-103.9667,24.02,64,71,1.93,MX,1711848552
37,rudbar,30.15,62.6,14.01,28,13,1.78,AF,1711848552
38,pisco,-13.7,-76.2167,24.03,78,0,7.2,PE,1711848552
39,touros,-5.1989,-35.4608,25.16,92,100,4.11,BR,1711848425
40,selkirk,50.1436,-96.8845,0.09,74,41,0.89,CA,1711848552
41,tolanaro,-25.0319,46.9987,23.04,94,40,2.06,MG,1711848552
42,fale old settlement,-9.3852,-171.2468,30.02,73,5,5.29,TK,1711848552
43,alice town,25.7167,-79.3,21.9,57,10,4.54,BS,1711848552
44,puerto natales,-51.7236,-72.4875,5.76,83,87,5.71,CL,1711848553
45,popondetta,-8.7537,148.2534,32.89,57,100,2.18,PG,1711848553
46,nurdagi,37.1773,36.7419,9.99,45,13,1.31,TR,1711848553
47,hastings,50.8552,0.5729,9.32,91,92,5.52,GB,1711848321
48,tazovsky,67.4667,78.7,-14.8,93,100,7.79,RU,1711848553
49,nova sintra,14.8667,-24.7167,19.62,71,93,5.57,CV,1711848553
50,port mathurin,-19.6833,63.4167,26.97,85,100,3.69,MU,1711848553
51,ouesso,1.6136,16.0517,23.91,78,98,1.14,CG,1711848553
52,west island,-12.1568,96.8225,27.99,74,82,6.17,CC,1711848553
53,bassar,9.25,0.7833,27.79,61,32,1.83,TG,1711848554
54,zapolyarnyy,69.4154,30.8136,-5.4,97,100,2.06,RU,1711848554
55,hotan,37.0997,79.9269,12.91,30,60,6.33,CN,1711848554
56,ilulissat,69.2167,-51.1,-8.99,73,20,0.0,GL,1711848554
57,atafu village,-8.5421,-172.5159,29.92,73,71,5.53,TK,1711848382
58,new norfolk,-42.7826,147.0587,18.84,55,95,0.68,AU,1711848554
59,brisas de zicatela,15.8369,-97.0419,28.29,78,0,1.54,MX,1711848555
60,aasiaat,68.7098,-52.8699,-15.96,87,79,3.04,GL,1711848555
61,bredasdorp,-34.5322,20.0403,19.63,66,7,1.83,ZA,1711848555
62,port elizabeth,-33.918,25.5701,17.83,96,0,2.57,ZA,1711848523
63,ayorou,14.7308,0.9174,31.08,12,55,3.63,NE,1711848555
64,griffith,41.5284,-87.4237,7.84,91,75,6.17,US,1711848556
65,wailua homesteads,22.0669,-159.378,26.24,72,75,6.17,US,1711848556
66,nuuk,64.1835,-51.7216,-2.66,74,21,3.09,GL,1711848300
67,trevelin,-43.0858,-71.4639,7.71,86,88,2.81,AR,1711848556
68,puri,19.8,85.85,27.29,79,29,8.04,IN,1711848556
69,catia la mar,10.6038,-67.0303,26.11,83,40,2.06,VE,1711848557
70,nizhneudinsk,54.9076,99.0276,1.13,86,100,1.59,RU,1711848557
71,nemuro,43.3236,145.575,1.8,97,100,10.31,JP,1711848557
72,port saint john's,-31.6229,29.5448,20.68,83,6,6.42,ZA,1711848558
73,sabang,5.8933,95.3214,28.52,74,100,1.89,ID,1711848558
74,katsuura,35.1333,140.3,19.5,67,0,10.39,JP,1711848558
75,lagos,6.5833,3.75,29.18,84,49,2.13,NG,1711848312
76,uturoa,-16.7333,-151.4333,29.05,78,40,8.21,PF,1711848558
77,badger,64.8,-147.5333,7.14,41,20,6.17,US,1711848559
78,enewetak,11.3474,162.3373,27.18,80,87,8.47,MH,1711848559
79,bamyan,34.75,67.25,-9.3,96,87,0.8,AF,1711848559
80,thompson,55.7435,-97.8558,-7.91,79,75,4.12,CA,1711848559
81,vadso,70.0744,29.7487,-4.51,86,100,7.2,NO,1711848560
82,qaqortoq,60.7167,-46.0333,-4.49,86,88,0.87,GL,1711848560
83,al hada,21.3675,40.2869,13.66,72,0,0.47,SA,1711848560
84,ribeira grande,38.5167,-28.7,12.65,77,100,0.45,PT,1711848560
85,lihue,21.9789,-159.3672,26.58,70,75,6.17,US,1711848561
86,cockburn town,21.4612,-71.1419,23.67,63,29,8.13,TC,1711848561
87,olonkinbyen,70.9221,-8.7187,-5.82,63,100,8.77,SJ,1711848561
88,chonchi,-42.6128,-73.8092,6.56,85,100,0.6,CL,1711848561
89,stanley,54.868,-1.6985,2.1,93,0,0.51,GB,1711848562
90,kone,-21.0595,164.8658,29.32,43,0,2.07,NC,1711848562
91,arraial do cabo,-22.9661,-42.0278,23.9,89,7,8.14,BR,1711848414
92,lebu,-37.6167,-73.65,13.16,76,100,9.12,CL,1711848562
93,sitka,57.0531,-135.33,8.94,71,100,6.69,US,1711848563
94,ust-nera,64.5667,143.2,-10.89,90,100,1.69,RU,1711848563
95,la asuncion,11.0333,-63.8628,25.34,79,64,2.93,VE,1711848324
96,constantia,44.1833,28.65,7.38,86,5,4.98,RO,1711848563
97,georgetown,5.4112,100.3354,28.3,86,20,3.09,MY,1711848314
98,polyarnyy,69.1989,33.4478,-5.22,95,100,1.41,RU,1711848564
99,puerto san jose,13.9256,-90.8244,28.02,73,13,2.72,GT,1711848564
100,pangody,65.85,74.4859,-17.27,95,100,7.54,RU,1711848564
101,holualoa,19.6228,-155.9522,24.32,80,75,4.63,US,1711848564
102,iqaluit,63.7506,-68.5145,-6.15,79,100,1.54,CA,1711848564
103,emiliano zapata,18.8333,-99.1833,31.34,14,40,1.03,MX,1711848564
104,luanco,43.6152,-5.7934,8.71,91,100,1.34,ES,1711848565
105,hamilton,39.1834,-84.5333,21.35,53,0,4.12,US,1711848148
106,walvis bay,-22.9575,14.5053,13.94,100,2,3.6,NA,1711848565
107,tiksi,71.6872,128.8694,-12.76,77,100,7.07,RU,1711848565
108,ancud,-41.8697,-73.8203,9.48,71,100,3.25,CL,1711848565
109,tofol,5.3248,163.0078,28.31,81,100,9.29,FM,1711848565
110,oranjemund,-28.55,16.4333,17.22,88,5,2.23,NA,1711848565
111,dourbali,11.8091,15.8632,29.86,11,99,3.42,TD,1711848566
112,san antonio de pale,-1.4014,5.6325,28.56,81,100,4.84,GQ,1711848566
113,happy valley-goose bay,53.3168,-60.3315,1.17,93,100,4.12,CA,1711848566
114,cidreira,-30.1811,-50.2056,22.22,84,0,4.3,BR,1711848566
115,cartagena,10.3997,-75.5144,27.79,74,20,4.63,CO,1711848356
116,tughyl,47.7252,84.2063,3.1,70,100,4.41,KZ,1711848566
117,banda aceh,5.5577,95.3222,28.02,76,100,1.0,ID,1711848567
118,atar,20.5169,-13.0499,22.3,25,13,3.2,MR,1711848553
119,caleta de carquin,-11.0925,-77.6267,22.91,83,99,3.88,PE,1711848567
120,hawaiian paradise park,19.5933,-154.9731,24.46,78,100,5.14,US,1711848567
121,jayapura,-2.5333,140.7,31.66,71,72,1.97,ID,1711848567
122,la plata,-34.9215,-57.9545,22.24,94,100,6.28,AR,1711848384
123,borovskoy,53.8,64.15,-4.51,90,45,3.78,KZ,1711848567
124,udachny,66.4167,112.4,-11.14,85,100,8.33,RU,1711848568
125,longyearbyen,78.2186,15.6401,-25.09,64,75,2.06,SJ,1711848491
126,malango,-2.9627,119.9001,25.41,80,72,0.44,ID,1711848568
127,boa vista,2.8197,-60.6733,30.99,58,40,2.06,BR,1711848509
128,port alfred,-33.5906,26.891,18.43,92,7,0.89,ZA,1711848568
129,saipan,15.1355,145.701,32.39,58,20,8.75,MP,1711848568
130,iskateley,67.6803,53.1512,-15.55,93,76,3.13,RU,1711848568
131,sitangkai,4.6628,119.3928,27.89,79,99,2.96,PH,1711848568
132,st. john's,47.5649,-52.7093,4.43,94,100,3.09,CA,1711848418
133,margate,51.3813,1.3862,8.28,94,64,0.45,GB,1711848569
134,saldanha,-33.0117,17.9442,16.03,85,5,5.01,ZA,1711848569
135,keflavik,64.0049,-22.5624,-1.05,74,0,12.35,IS,1711848569
136,altay,47.8667,88.1167,3.7,79,85,1.94,CN,1711848569
137,port augusta,-32.5,137.7667,27.91,46,0,3.28,AU,1711848569
138,papao,-17.75,-149.55,29.82,81,34,10.79,PF,1711848569
139,kerikeri,-35.2268,173.9474,23.28,51,0,0.89,NZ,1711848570
140,yellowknife,62.456,-114.3525,-3.1,63,20,3.09,CA,1711848315
141,la ronge,55.1001,-105.2842,-4.86,74,75,1.54,CA,1711848570
142,tura,25.5198,90.2201,22.74,83,0,2.6,IN,1711848570
143,berdigestyakh,62.0989,126.6992,-15.82,90,86,1.98,RU,1711848570
144,funafuti,-8.5243,179.1942,33.0,70,75,2.57,TV,1711848570
145,quellon,-43.1167,-73.6167,8.05,80,72,1.41,CL,1711848570
146,mejit,10.2753,170.8646,27.05,81,100,9.72,MH,1711848570
147,la passe,45.5549,-0.8967,9.13,93,93,4.62,FR,1711848571
148,palatka,29.6486,-81.6376,20.62,55,0,0.45,US,1711848447
149,mount gambier,-37.8333,140.7667,23.43,40,12,2.1,AU,1711848571
150,moratalla,38.1893,-1.8918,8.59,66,51,4.23,ES,1711848571
151,urucara,-2.5364,-57.76,25.17,88,99,1.55,BR,1711848571
152,bo phloi,14.3236,99.5161,30.41,41,54,2.15,TH,1711848571
153,papatowai,-46.5619,169.4708,12.11,72,100,1.05,NZ,1711848571
154,ceeldheer,3.8488,47.1806,27.68,76,27,5.4,SO,1711848571
155,bontang,0.1333,117.5,27.73,81,84,2.2,ID,1711848568
156,afaahiti,-17.75,-149.2833,28.93,80,52,9.35,PF,1711848572
157,petropavlovsk-kamchatsky,53.0452,158.6483,0.33,88,75,7.0,RU,1711848572
158,bamboo flat,11.7,92.7167,27.05,89,40,0.51,IN,1711848572
159,vilyuchinsk,52.9306,158.4028,1.15,95,100,9.15,RU,1711848572
160,jamestown,42.097,-79.2353,5.01,99,100,1.54,US,1711848275
161,sao joao da barra,-21.6403,-41.0511,23.82,91,97,1.13,BR,1711848572
162,jerseyville,39.12,-90.3285,20.93,71,15,3.29,US,1711848572
163,valuyki,50.2035,38.1067,10.71,67,97,2.92,RU,1711848523
164,turkmenbasy,40.0222,52.9552,9.43,93,40,3.09,TM,1711848573
165,taoudenni,22.6783,-3.9836,25.27,19,4,2.58,ML,1711848573
166,callaway,30.153,-85.5699,17.96,66,0,3.09,US,1711848573
167,verkhnevilyuysk,63.4453,120.3167,-12.91,89,15,1.67,RU,1711848573
168,yuzhno-kurilsk,44.0306,145.8556,0.76,79,100,3.37,RU,1711848573
169,kingston,17.997,-76.7936,28.53,72,20,5.14,JM,1711848457
170,argo,37.6333,22.7333,15.24,51,88,1.56,GR,1711848573
171,zelenoborskiy,66.845,32.3622,-5.91,96,100,2.79,RU,1711848573
172,astaneh-ye ashrafiyeh,37.2596,49.9444,11.62,75,73,2.63,IR,1711848573
173,valdivia,-39.8142,-73.2459,12.05,77,100,1.04,CL,1711848524
174,anadyr,64.75,177.4833,-16.72,84,75,4.0,RU,1711848574
175,odiongan,12.4017,121.9919,28.5,70,48,3.94,PH,1711848574
176,hibbing,47.4272,-92.9377,1.72,65,100,0.0,US,1711848574
177,avarua,-21.2078,-159.775,31.03,70,75,4.63,CK,1711848574
178,bandarbeyla,9.4942,50.8122,26.59,71,7,3.51,SO,1711848324
179,zavitinsk,50.1167,129.45,-2.29,78,98,5.8,RU,1711848574
180,kalmunai,7.4167,81.8167,26.39,81,19,0.61,LK,1711848574
181,margaret river,-33.95,115.0667,17.98,73,93,6.3,AU,1711848574
182,vorgashor,67.5833,63.95,-20.3,99,100,3.42,RU,1711848575
183,port-gentil,-0.7193,8.7815,28.25,82,59,4.15,GA,1711848575
184,idri,27.5,13.2667,22.12,21,0,3.11,LY,1711848575
185,carolina beach,34.0352,-77.8936,17.28,65,0,0.45,US,1711848575
186,lompoc,34.6391,-120.4579,12.4,87,75,7.2,US,1711848413
187,dudinka,69.4058,86.1778,-11.85,97,100,1.79,RU,1711848575
188,dryden,49.7833,-92.7503,1.16,75,100,3.09,CA,1711848575
189,ban houayxay,20.2453,100.4547,27.59,35,20,0.41,LA,1711848575
190,hutchinson,38.0608,-97.9298,15.97,65,0,0.0,US,1711848285
191,booue,-0.0921,11.9385,24.48,96,98,1.07,GA,1711848576
192,dayton,39.7589,-84.1916,19.2,72,20,4.12,US,1711848576
193,lagonoy,13.7342,123.5207,28.87,71,100,2.49,PH,1711848576
194,usogorsk,63.4106,48.6872,-1.85,95,100,2.78,RU,1711848576
195,labuan,5.2767,115.2417,30.2,74,20,1.54,MY,1711848576
196,sechelt,49.4664,-123.7694,13.18,58,99,3.27,CA,1711848576
197,dazuocun,24.8862,118.9643,20.81,94,100,9.72,CN,1711848576
198,alofi,-19.0595,-169.9187,30.94,79,94,3.09,NU,1711848576
199,naracoorte,-36.9579,140.7383,28.11,21,0,2.46,AU,1711848576
200,kwali,8.8672,7.005,29.68,50,12,1.95,NG,1711848577
201,gobernador virasora,-28.05,-56.0333,24.46,99,89,0.45,AR,1711848577
202,punta arenas,-53.15,-70.9167,7.06,81,75,10.29,CL,1711848322
203,weston,26.1004,-80.3998,22.21,60,100,3.58,US,1711848516
204,korla,41.7597,86.1469,16.0,30,100,5.86,CN,1711848577
205,coquimbo,-29.9533,-71.3436,15.85,100,100,1.54,CL,1711848577
206,nar'yan-mar,67.6713,53.087,-15.5,93,75,3.13,RU,1711848577
207,tucuma,-0.1833,-50.05,25.03,93,100,2.09,BR,1711848577
208,nelson,-41.2833,173.2833,17.94,58,43,0.89,NZ,1711848498
209,klyuchi,52.2667,79.1667,-0.34,85,92,5.1,RU,1711848578
210,tereze,43.9361,42.4434,7.1,53,100,1.52,RU,1711848578
211,baise city,23.8997,106.6133,23.52,99,100,0.86,CN,1711848578
212,priozersk,61.0393,30.1291,4.49,84,1,2.86,RU,1711848578
213,sydney mines,46.2367,-60.2177,2.72,90,100,4.12,CA,1711848578
214,shakawe,-18.3667,21.85,18.76,94,100,1.12,BW,1711848578
215,alaghsas,17.0187,8.0168,30.27,11,12,3.83,NE,1711848578
216,glace bay,46.1969,-59.957,2.14,93,100,4.12,CA,1711848574
217,guajara mirim,-10.7828,-65.3394,24.01,99,100,1.22,BR,1711848579
218,coahuayana de hidalgo,18.7,-103.6583,24.19,64,83,1.95,MX,1711848579
219,puerto aysen,-45.4,-72.7,3.11,98,44,1.85,CL,1711848579
220,haiku-pauwela,20.9219,-156.3051,27.01,68,40,9.26,US,1711848579
221,severo-yeniseyskiy,60.3725,93.0408,-1.9,95,100,2.68,RU,1711848580
222,concepcion,-36.827,-73.0498,16.89,45,0,3.6,CL,1711848385
223,fort bragg,35.139,-79.006,19.85,34,0,3.6,US,1711848580
224,ribeira brava,32.65,-17.0667,18.89,84,36,8.96,PT,1711848580
225,dali,25.7,100.1833,15.6,72,29,2.41,CN,1711848580
226,kaffrine,14.1059,-15.5508,24.1,40,36,4.96,SN,1711848581
227,kodiak,57.79,-152.4072,3.73,87,100,6.17,US,1711848581
228,sinop,41.7711,34.8709,14.3,58,100,4.54,TR,1711848581
229,flying fish cove,-10.4217,105.6791,26.82,78,75,6.17,CX,1711848555
230,alice springs,-23.7,133.8833,27.34,65,100,3.09,AU,1711848563
231,queenstown,-31.8976,26.8753,14.9,70,1,1.31,ZA,1711848245
232,katsuren-haebaru,26.3369,127.8719,24.21,89,100,3.09,JP,1711848582
233,temiskaming shores,47.4938,-79.7153,0.89,57,100,2.3,CA,1711848582
234,mirnyy,62.5353,113.9611,-14.2,87,13,2.33,RU,1711848582
235,montoro,38.0241,-4.3834,12.21,97,100,3.28,ES,1711848582
236,zemio,5.0314,25.1361,24.89,59,100,1.49,CF,1711848583
237,sanming,26.2486,117.6186,25.24,79,100,3.54,CN,1711848583
238,punta cana,18.5818,-68.4043,24.87,83,75,5.66,DO,1711848583
239,brits,-25.6347,27.7802,17.94,72,31,1.96,ZA,1711848583
240,soio,-6.1349,12.3689,27.67,89,100,3.44,AO,1711848584
241,sisimiut,66.9395,-53.6735,-8.1,63,62,3.12,GL,1711848584
242,kupjansk,49.7209,37.5998,9.79,66,55,3.17,UA,1711848584
243,diamantino,-14.4086,-56.4461,24.95,85,87,0.75,BR,1711848584
244,antsiranana,-12.2787,49.2917,24.96,87,98,1.4,MG,1711848584
245,saham,24.1722,56.8886,22.01,58,68,1.14,OM,1711848585
246,vila franca do campo,37.7167,-25.4333,12.23,61,100,8.57,PT,1711848585
247,nova olinda do norte,-3.8881,-59.0942,25.39,88,41,1.35,BR,1711848585
248,callao,-12.0667,-77.15,27.07,73,0,7.2,PE,1711848585
249,vila velha,-20.3297,-40.2925,24.97,96,100,6.26,BR,1711848421
250,ust'-kulom,61.6864,53.6902,0.54,99,100,1.87,RU,1711848586
251,huilong,31.8111,121.655,11.47,87,100,7.17,CN,1711848586
252,minas de marcona,-15.2119,-75.1103,18.67,79,100,4.48,PE,1711848587
253,zambrano,9.7472,-74.8153,28.66,59,42,4.93,CO,1711848587
254,teluknaga,-6.0989,106.6381,31.46,79,40,2.06,ID,1711848587
255,namsos,64.4662,11.4957,5.03,87,100,6.69,NO,1711848587
256,caleta olivia,-46.4393,-67.5281,10.63,38,0,5.08,AR,1711848559
257,hadibu,12.65,54.0333,25.94,74,0,2.75,YE,1711848587
258,kiratu,-3.3333,35.6667,16.67,94,97,1.39,TZ,1711848588
259,muntok,-2.0667,105.1833,27.24,80,100,1.01,ID,1711848588
260,cameron,26.117,-97.5169,24.08,83,100,6.17,US,1711848588
261,kimbe,-5.5502,150.1429,29.3,80,92,1.43,PG,1711848588
262,danielskuil,-28.1887,23.5395,18.89,64,90,4.77,ZA,1711848588
263,champerico,14.3,-91.9167,28.37,70,0,3.32,GT,1711848588
264,brigantine,39.4101,-74.3646,11.11,79,40,4.02,US,1711848589
265,chizhou,30.6578,117.4831,15.8,91,100,2.74,CN,1711848589
266,shuangjiang,26.1547,109.7138,20.98,86,79,0.9,CN,1711848589
267,guadalupe,25.6833,-100.25,29.73,47,20,4.12,MX,1711848410
268,christchurch,-43.5333,172.6333,15.51,67,100,2.57,NZ,1711848419
269,dipayal,29.2608,80.94,17.11,67,1,2.22,NP,1711848589
270,saint-pierre,-21.3393,55.4781,24.82,78,100,2.57,RE,1711848487
271,portland,45.5234,-122.6762,18.02,36,75,4.63,US,1711848145
272,ust'-ilimsk,58.0006,102.6619,-4.76,92,100,4.02,RU,1711848590
273,turpan,42.9333,89.1667,18.68,33,100,4.08,CN,1711848590
274,moyale,3.5167,39.0584,22.42,63,9,2.95,KE,1711848590
275,crane,31.3974,-102.3501,24.99,15,95,3.78,US,1711848590
276,hami,42.8,93.45,15.31,35,100,7.14,CN,1711848590
277,kolda,12.8833,-14.95,29.31,24,91,3.47,SN,1711848590
278,la sarre,48.8002,-79.1996,-5.62,89,100,2.61,CA,1711848320
279,menongue,-14.6585,17.691,17.96,98,100,1.96,AO,1711848591
280,bako,5.7833,36.5667,18.26,82,100,1.85,ET,1711848591
281,farasan,16.7022,42.1183,28.01,78,68,7.05,SA,1711848591
282,yerofey pavlovich,53.9667,121.9667,-10.37,63,96,2.48,RU,1711848591
283,lazaro cardenas,17.9583,-102.2,25.56,62,100,3.36,MX,1711848591
284,mount pearl,47.5166,-52.7813,3.97,94,100,3.09,CA,1711848591
285,port lincoln,-34.7333,135.8667,22.22,53,3,1.67,AU,1711848591
286,souillac,-20.5167,57.5167,26.21,94,75,2.06,MU,1711848592
287,nema,57.5067,50.5011,0.98,100,100,3.33,RU,1711848592
288,hanceville,34.0607,-86.7675,18.98,76,96,2.08,US,1711848309
289,moriki,12.8741,6.4875,29.34,9,100,2.7,NG,1711848592
290,arta,39.1606,20.9853,13.8,59,27,1.57,GR,1711848592
291,dunedin,-45.8742,170.5036,12.11,97,84,2.03,NZ,1711848394
292,al muwayh,22.4333,41.7583,21.12,62,0,2.63,SA,1711848321
293,floro,61.5996,5.0328,6.04,93,100,3.6,NO,1711848592
294,zliten,32.4674,14.5687,22.81,23,0,6.43,LY,1711848593
295,khandyga,62.6667,135.6,-12.09,81,42,2.46,RU,1711848593
296,san patricio,28.017,-97.5169,23.24,72,80,5.97,US,1711848593
297,porto cristo,39.5395,3.333,14.07,83,100,8.22,ES,1711848593
298,rongelap,11.1635,166.8941,27.24,80,98,8.45,MH,1711848593
299,palopo,-2.9996,120.1921,29.05,73,100,0.84,ID,1711848593
300,marka,1.7159,44.7717,27.98,81,98,5.56,SO,1711848594
301,praia da vitoria,38.7333,-27.0667,12.14,66,20,9.32,PT,1711848594
302,upata,8.0086,-62.3989,28.44,56,95,3.55,VE,1711848594
303,tasqala,51.1167,50.3167,4.57,85,100,6.07,KZ,1711848594
304,arkalyk,50.2486,66.9114,-6.9,96,65,4.58,KZ,1711848594
305,las tablas,7.7667,-80.2833,24.54,99,11,9.41,PA,1711848594
306,mozarlandia,-14.7447,-50.5706,24.44,84,100,1.34,BR,1711848591
307,richards bay,-28.783,32.0377,21.56,76,100,2.39,ZA,1711848594
308,pacific grove,36.6177,-121.9166,12.88,84,100,4.02,US,1711848595
309,tarkwa,5.3064,-1.9847,25.02,91,13,1.43,GH,1711848595
310,igarka,67.4667,86.5833,-4.62,97,100,2.3,RU,1711848595
311,al buraymi,24.2509,55.7931,19.68,94,44,2.06,OM,1711848595
312,castillos,-34.1667,-53.8333,20.64,80,28,1.96,UY,1711848595
313,barranca,-10.75,-77.7667,22.95,81,98,3.06,PE,1711848595
314,suva,-18.1416,178.4415,28.71,79,75,1.03,FJ,1711848595
315,kilju,40.9642,129.3278,7.1,30,3,2.77,KP,1711848595
316,porto murtinho,-21.6989,-57.8825,28.46,59,99,1.97,BR,1711848595
317,musan-up,42.2261,129.2078,3.37,20,10,7.87,KP,1711848596
318,chala,-7.5833,31.2667,14.95,96,100,1.29,TZ,1711848596
319,hasaki,35.7333,140.8333,25.22,57,0,5.19,JP,1711848596
320,luwuk,-0.9516,122.7875,28.77,82,54,1.07,ID,1711848596
321,itapirapua,-15.8233,-50.6133,23.47,93,100,0.96,BR,1711848596
322,biograd na moru,43.9433,15.4519,17.39,65,100,14.57,HR,1711848596
323,tsiombe,-25.3,45.4833,22.11,88,16,4.45,MG,1711848596
324,ouahigouya,13.5828,-2.4216,29.72,11,57,1.84,BF,1711848596
325,zhezqazghan,47.7833,67.7667,-4.68,93,0,3.0,KZ,1711848597
326,boundiali,9.5217,-6.4869,27.82,58,100,2.44,CI,1711848597
327,robertsport,6.7533,-11.3686,26.41,82,100,1.31,LR,1711848597
328,marquette,46.5333,-87.6335,0.58,89,100,1.26,US,1711848597
329,nagqu,31.5,92.0,-1.71,61,76,1.51,CN,1711848597
330,yelizovo,53.1873,158.3805,1.08,60,75,7.0,RU,1711848597
331,kanash,55.5086,47.4956,1.33,99,100,3.23,RU,1711848597
332,tippi,7.2,35.45,21.51,62,100,1.51,ET,1711848597
333,la'ie,21.6477,-157.9253,26.98,75,78,0.89,US,1711848598
334,burang,30.25,81.1667,-7.76,93,62,1.94,CN,1711848598
335,la libertad,-2.2333,-80.9,24.2,78,63,3.14,EC,1711848418
336,weno,7.4515,151.8468,28.2,79,99,10.44,FM,1711848598
337,grevena,40.0845,21.4274,9.56,62,75,1.22,GR,1711848598
338,codrington,-38.2667,141.9667,21.37,50,10,3.31,AU,1711848598
339,punta del este,-34.9667,-54.95,23.31,89,0,1.03,UY,1711848598
340,eyl,7.9803,49.8164,26.26,71,10,3.82,SO,1711848598
341,lome,6.1375,1.2123,28.61,81,100,4.61,TG,1711848599
342,arkhangel'sk,64.5401,40.5433,-1.94,64,75,1.0,RU,1711848599
343,monte carmelo,-18.7247,-47.4986,21.12,88,99,1.74,BR,1711848599
344,kangding,30.0513,101.9603,11.6,66,43,0.95,CN,1711848599
345,kisesa,-3.0833,34.15,18.2,93,100,2.5,TZ,1711848599
346,huarmey,-10.0681,-78.1522,23.41,83,90,3.38,PE,1711848599
347,ikongo,-21.8833,47.4333,20.0,96,2,0.99,MG,1711848599
348,taco pozo,-25.6167,-63.2833,29.4,41,76,2.64,AR,1711848599
349,fortaleza,-3.7227,-38.5247,27.07,89,75,1.03,BR,1711848392
350,seydi,39.4816,62.9137,9.82,30,6,4.69,TM,1711848599
351,huazhou,21.6333,110.5833,27.24,76,28,2.57,CN,1711848600
352,roccella ionica,38.322,16.4009,15.0,84,100,0.81,IT,1711848600
353,thunder bay,48.4001,-89.3168,0.99,93,100,1.03,CA,1711848521
354,goynuk,40.4003,30.7883,14.05,51,24,1.59,TR,1711848439
355,bodaybo,57.8506,114.1933,-15.02,90,54,0.47,RU,1711848600
356,collie,-33.3667,116.15,18.16,71,100,4.28,AU,1711848600
357,aykhal,66.0,111.5,-12.83,92,100,9.63,RU,1711848600
358,quimili,-27.6333,-62.4167,29.4,42,92,3.13,AR,1711848600
359,koh kong,11.6175,102.9806,28.99,74,100,1.19,KH,1711848601
360,kuanda,56.3161,116.0806,-14.82,83,29,1.18,RU,1711848601
361,kisber,47.5029,18.0367,14.2,58,100,3.96,HU,1711848601
362,ha tien,10.3833,104.4833,30.11,65,100,2.23,VN,1711848601
363,maru,12.3342,6.4057,28.24,17,56,1.66,NG,1711848601
364,joshimath,30.5667,79.5667,11.7,67,22,1.49,IN,1711848601
365,auna,10.1881,4.7232,30.08,42,9,2.66,NG,1711848601
366,bubaque,11.2833,-15.8333,25.42,71,22,5.27,GW,1711848602
367,cacapava do sul,-30.5122,-53.4914,18.36,70,0,1.21,BR,1711848602
368,kill devil hills,36.0307,-75.676,18.0,66,0,6.17,US,1711848333
369,fortuna,40.5982,-124.1573,15.37,83,0,4.63,US,1711848602
370,preili,56.2944,26.7246,7.64,85,98,3.11,LV,1711848602
371,ballina,-28.8667,153.5667,25.43,64,100,4.7,AU,1711848602
372,agat village,13.3886,144.6585,30.53,71,40,7.2,GU,1711848603
373,smithers,54.7804,-127.1743,8.18,46,75,3.6,CA,1711848603
374,prainha,-1.8,-53.48,23.73,92,100,1.24,BR,1711848603
375,el granada,37.5027,-122.4694,17.14,73,75,6.69,US,1711848603
376,nasir,15.5894,32.5634,25.07,11,100,7.31,SD,1711848603
377,kidal,18.4411,1.4078,30.76,19,81,4.28,ML,1711848604
378,issia,6.4922,-6.5856,24.31,84,96,0.66,CI,1711848604
379,rikaze,29.25,88.8833,5.08,54,100,1.79,CN,1711848604
380,pombas,17.1503,-25.0201,19.88,70,60,5.34,CV,1711848604
381,gangneung,37.7556,128.8961,12.31,33,5,1.45,KR,1711848604
382,cienfuegos,22.1461,-80.4356,23.08,64,1,3.6,CU,1711848605
383,hurricane,37.1753,-113.2899,11.19,60,99,5.31,US,1711848597
384,palmer,42.1584,-72.3287,9.75,51,20,2.06,US,1711848479
385,balabac,7.9868,117.0645,29.61,72,40,6.37,PH,1711848605
386,dharchula,29.85,80.5333,17.53,59,0,2.27,IN,1711848605
387,puerto lempira,15.2667,-83.7667,25.18,86,2,3.69,HN,1711848605
388,goundam,16.4145,-3.6708,29.76,18,100,4.29,ML,1711848605
389,fort mcmurray,56.7268,-111.381,1.77,40,0,3.6,CA,1711848606
390,fada,9.5667,8.3,24.13,63,27,0.74,NG,1711848606
391,paso de carrasco,-34.8603,-56.0522,23.08,88,75,5.66,UY,1711848606
392,pyt-yakh,60.7499,72.8582,-12.61,94,8,3.13,RU,1711848606
393,santyoku,37.4406,129.1708,11.94,48,22,1.61,KR,1711848606
394,changping,40.2186,116.2197,12.8,24,69,1.87,CN,1711848606
395,el haouaria,37.05,11.0144,16.01,91,12,0.85,TN,1711848607
396,kristiansund,63.1115,7.732,6.36,81,100,3.09,NO,1711848607
397,crawfordsville,40.0411,-86.8745,15.51,62,0,5.66,US,1711848607
398,znamenskoye,57.1281,73.8282,-1.28,93,33,2.89,RU,1711848607
399,okha,53.5739,142.9478,-0.44,99,100,7.46,RU,1711848607
400,carnarvon,-24.8667,113.6333,28.68,46,100,5.81,AU,1711848607
401,altai,46.3722,96.2583,6.16,37,100,2.74,MN,1711848608
402,bonthe,7.5264,-12.505,25.08,83,97,2.3,SL,1711848608
403,masterton,-40.9597,175.6575,17.16,46,40,3.08,NZ,1711848600
404,tchintabaraden,15.8969,5.7985,29.62,13,100,5.6,NE,1711848608
405,qashar,53.3906,62.9297,-3.12,86,77,3.72,KZ,1711848608
406,benguela,-12.5763,13.4055,26.25,88,100,2.24,AO,1711848608
407,uzgen,40.7699,73.3007,6.16,74,100,0.22,KG,1711848542
408,san andres,12.5847,-81.7006,28.01,65,20,4.12,CO,1711848609
409,koulikoro,14.0,-7.75,29.7,19,100,3.84,ML,1711848609
410,zacapa,14.9667,-89.5333,24.96,78,0,2.48,GT,1711848596
411,afsin,38.2477,36.914,10.85,47,100,0.84,TR,1711848609
412,puerto berrio,6.4916,-74.4033,28.41,65,100,1.54,CO,1711848609
413,iwye,53.9299,25.7727,11.48,86,100,3.37,BY,1711848609
414,kegeyli shahar,42.7767,59.6078,3.05,59,76,3.42,UZ,1711848609
415,bakaly,55.1789,53.8028,1.05,98,100,6.06,RU,1711848610
416,ashdod,31.8167,34.65,19.01,73,0,1.19,IL,1711848610
417,waingapu,-9.6567,120.2641,29.53,70,21,2.96,ID,1711848610
418,laojunmiao,39.8333,97.7333,14.6,12,4,1.63,CN,1711848610
419,colonia,50.9333,6.95,9.42,88,0,0.0,DE,1711848586
420,nova vicosa,-17.8919,-39.3719,25.96,89,100,2.8,BR,1711848611
421,salahonda,2.1019,-78.7217,27.06,79,91,2.11,CO,1711848611
422,east london,-33.0153,27.9116,20.45,81,7,8.36,ZA,1711848608
423,megion,61.0296,76.1136,-7.99,92,50,6.77,RU,1711848611
424,chibougamau,49.9168,-74.3659,-7.21,68,100,4.63,CA,1711848611
425,barcelos,41.5388,-8.6151,8.08,93,94,1.64,PT,1711848349
426,cedeira,43.6797,-8.0209,6.88,81,52,5.62,ES,1711848611
427,vaasa,63.096,21.6158,0.72,100,100,2.68,FI,1711848611
428,puerto santa,-8.9906,-78.6456,22.08,87,20,3.43,PE,1711848611
429,eirunepe,-6.6603,-69.8736,23.4,98,100,0.68,BR,1711848612
430,manadhoo,5.7667,73.3833,29.12,71,10,2.99,MV,1711848612
431,solnechnyy,50.7214,136.6319,-3.87,92,100,1.83,RU,1711848612
432,mariehamn,60.0973,19.9348,4.9,93,0,3.09,AX,1711848612
433,merowe,18.4833,31.8167,21.4,26,43,4.97,SD,1711848612
434,natal,-5.795,-35.2094,26.12,89,20,1.54,BR,1711848320
435,kaspiyskiy,45.3929,47.3707,7.74,95,100,0.96,RU,1711848612
436,ajuchitlan del progreso,18.1519,-100.4835,30.53,20,11,1.19,MX,1711848613
437,yuzhno-sukhokumsk,44.6581,45.6436,10.96,83,100,4.1,RU,1711848613
438,prachuap khiri khan,12.2167,99.75,31.77,47,81,0.97,TH,1711848613
439,laguna,38.421,-121.4238,16.83,58,20,4.63,US,1711848471
440,harstad,68.799,16.5293,-2.14,94,100,2.68,NO,1711848613
441,gorontalo,0.5412,123.0595,32.27,59,25,0.6,ID,1711848613
442,lorengau,-2.0226,147.2712,29.08,79,40,5.68,PG,1711848613
443,fisterra,42.9049,-9.2629,6.53,69,12,6.23,ES,1711848613
444,ugoofaaru,5.6667,73.0,29.05,72,3,3.47,MV,1711848614
445,aguada de pasajeros,22.385,-80.8508,22.0,59,7,5.0,CU,1711848614
446,conde,-7.2597,-34.9075,26.7,94,20,0.0,BR,1711848529
447,yarmouth,41.7057,-70.2286,8.89,65,0,5.81,US,1711848614
448,lospalos,-8.5186,127.0025,28.58,70,97,2.24,TL,1711848383
449,mizdah,31.4451,12.9801,20.14,15,0,3.1,LY,1711848614
450,turi,40.9173,17.0212,16.15,84,100,10.91,IT,1711848614
451,rio grande,-32.035,-52.0986,21.62,86,0,2.77,BR,1711848614
452,santa terezinha,-29.9002,-50.0904,21.82,82,0,3.47,BR,1711848614
453,diplo,24.4667,69.584,22.09,68,99,3.99,PK,1711848615
454,bulungu,-4.55,18.6,21.44,97,97,1.07,CD,1711848615
455,jerome,42.7241,-114.5186,8.71,77,75,5.14,US,1711848615
456,galveston,29.3669,-94.9669,22.22,83,40,4.12,US,1711848548
457,cururupu,-1.8283,-44.8683,23.96,97,96,0.27,BR,1711848615
458,finale ligure,44.1695,8.3436,15.48,92,70,1.79,IT,1711848615
459,cidade velha,14.9167,-23.6167,21.26,68,20,6.17,CV,1711848615
460,kailua-kona,19.6406,-155.9956,26.39,80,75,4.63,US,1711848449
461,arsk,56.0915,49.8778,1.86,92,100,3.78,RU,1711848615
462,savannakhet,16.566,104.751,29.01,70,40,1.03,LA,1711848615
463,trujillo,-8.116,-79.03,21.98,88,100,5.14,PE,1711848135
464,santa maria da vitoria,-13.3947,-44.1886,24.77,64,36,1.04,BR,1711848616
465,madinat ash shamal,26.1293,51.2009,21.9,63,100,3.04,QA,1711848616
466,yemva,62.59,50.8594,0.45,99,100,2.08,RU,1711848616
467,al qubbah,32.7616,22.2424,13.83,66,50,5.51,LY,1711848616
468,port macquarie,-31.4333,152.9167,24.38,62,61,2.64,AU,1711848616
469,abagur,53.7308,87.2526,1.79,95,100,5.58,RU,1711848465
470,hilo,19.7297,-155.09,24.49,80,100,5.14,US,1711848617
471,tionk essil,12.7856,-16.5217,22.03,50,35,4.86,SN,1711848617
472,fort st. john,56.2499,-120.8529,6.94,26,75,2.06,CA,1711848582
473,sain alto,23.5833,-103.25,17.58,19,3,5.97,MX,1711848617
474,tual,-5.6667,132.75,28.64,77,38,6.43,ID,1711848617
475,kudahuvadhoo,2.6708,72.8944,28.59,70,1,1.6,MV,1711848617
476,egilsstadir,65.2653,-14.3948,-3.05,80,100,9.26,IS,1711848618
477,sarangani,5.4033,125.4636,27.81,80,100,9.35,PH,1711848618
478,deschutes river woods,43.9915,-121.3584,10.33,47,36,5.14,US,1711848618
479,alajarvi,63.0,23.8167,-1.29,98,96,1.88,FI,1711848618
480,rundu,-17.9333,19.7667,19.11,93,100,3.96,NA,1711848618
481,les anglais,18.3054,-74.2197,24.82,80,89,2.31,HT,1711848618
482,bikenibeu village,1.3673,173.1241,30.98,79,40,5.14,KI,1711848619
483,selfoss,63.9331,-20.9971,-3.16,52,21,8.67,IS,1711848619
484,hithadhoo,-0.6,73.0833,28.48,74,10,1.06,MV,1711848619
485,holma,9.9008,13.0567,28.61,24,99,2.08,NG,1711848619
486,pospelikha,51.95,81.7667,1.13,74,73,6.58,RU,1711848619
487,oriximina,-1.7656,-55.8661,24.42,88,100,1.36,BR,1711848619
488,miri,4.4148,114.0089,29.08,79,20,3.6,MY,1711848619
489,chom thong,18.4174,98.6743,30.61,27,0,1.13,TH,1711848619
490,viqueque,-8.8673,126.3658,30.38,71,100,2.14,TL,1711848619
491,sal rei,16.1833,-22.9167,20.69,73,99,7.09,CV,1711848620
492,ixtapa,20.7,-105.2,23.46,88,75,4.12,MX,1711848620
493,robore,-18.3333,-59.75,23.6,91,16,1.15,BO,1711848620
494,pudozh,61.8099,36.5345,0.53,99,100,2.24,RU,1711848620
495,muscat,23.6139,58.5922,25.01,66,97,1.97,OM,1711848620
496,howrah,22.5892,88.3103,25.0,83,20,3.09,IN,1711848620
497,tayoltita,24.0833,-105.9333,17.83,41,66,0.99,MX,1711848620
498,kogalym,62.2654,74.4791,-15.6,93,11,7.32,RU,1711848556
499,machali,-34.1833,-70.6667,19.57,27,2,0.99,CL,1711848476
500,hell-ville,-13.4,48.2667,27.21,82,96,2.73,MG,1711848621
501,medina,24.4686,39.6142,21.24,56,20,5.14,SA,1711848433
502,kamalganj,27.2667,79.65,28.1,24,1,2.01,IN,1711848621
503,puerto armuelles,8.2833,-82.8667,30.05,53,99,0.45,PA,1711848583
504,bobo-dioulasso,11.1771,-4.2979,31.25,58,0,4.12,BF,1711848621
505,kavaratti,10.5669,72.642,28.63,70,97,4.17,IN,1711848622
506,san julian,21.0167,-102.1667,19.15,14,35,2.58,MX,1711848622
507,port moresby,-9.4431,147.1797,28.49,79,100,1.98,PG,1711848622
508,san fernando de apure,7.8878,-67.4724,31.47,34,92,1.92,VE,1711848622
509,santa cruz,-17.8,-63.1667,25.7,89,75,1.54,BO,1711848622
510,guerrero negro,27.9769,-114.0611,19.7,53,100,6.39,MX,1711848346
511,chapada dos guimaraes,-15.4606,-55.7497,19.81,78,95,1.22,BR,1711848623
512,silale,55.4906,22.1814,10.69,90,100,3.6,LT,1711848623
513,barah,13.7,30.3667,22.5,13,88,4.8,SD,1711848623
514,pagar alam,-4.0167,103.2667,25.57,82,100,1.11,ID,1711848623
515,khorixas,-20.3667,14.9667,20.77,64,0,2.45,NA,1711848623
516,anahuac,27.2333,-100.15,27.81,46,49,6.42,MX,1711848624
517,obo,5.3998,26.4869,26.16,52,99,1.9,CF,1711848624
518,villa gesell,-37.2639,-56.973,17.25,46,100,7.62,AR,1711848624
519,la manga del mar menor,37.6413,-0.7165,16.0,76,0,10.28,ES,1711848624
520,kununurra,-15.7667,128.7333,33.99,55,100,2.57,AU,1711848605
521,lavaltrie,45.8834,-73.2824,4.89,41,36,2.06,CA,1711848624
522,lautoka,-17.6167,177.4667,28.92,74,75,1.54,FJ,1711848624
523,morehead city,34.7229,-76.726,17.01,73,0,7.72,US,1711848581
524,newman,37.3138,-121.0208,16.83,68,94,3.58,US,1711848416
525,tyuratam,45.6507,63.3156,2.83,61,32,2.73,KZ,1711848625
526,sinabang,2.4803,96.3801,27.33,83,100,1.48,ID,1711848625
527,vuktyl,63.8567,57.3094,-19.38,100,100,1.34,RU,1711848625
528,kinana,14.0361,33.1712,26.85,10,100,6.4,SD,1711848625
529,midvagur,62.0511,-7.1939,4.46,87,100,4.63,FO,1711848625
530,margaride,41.3683,-8.2007,6.31,94,100,1.53,PT,1711848625
531,freetown,8.484,-13.2299,25.29,79,89,2.79,SL,1711848625
532,scottburgh,-30.2867,30.7532,19.95,88,16,5.5,ZA,1711848626
533,jose maria morelos,23.3952,-103.8984,13.84,24,5,3.62,MX,1711848626
534,letterkenny,54.95,-7.7333,3.37,96,100,0.99,IE,1711848626
535,kamloops,50.6665,-120.3192,10.32,40,100,1.79,CA,1711848494
536,strezhevoy,60.7333,77.5889,-8.35,89,84,6.71,RU,1711848626
537,praia,14.9215,-23.5087,21.3,68,20,6.17,CV,1711848626
538,assab,13.0092,42.7394,27.31,80,100,6.12,ER,1711848626
539,ridgecrest,35.6225,-117.6709,11.92,61,40,8.05,US,1711848608
540,fedorovskiy,45.0972,40.9517,8.2,79,100,2.43,RU,1711848627
541,melekeok village,7.4957,134.6367,30.31,70,75,4.12,PW,1711848627
542,dingzhou,38.5131,114.9956,15.06,31,0,5.17,CN,1711848627
543,putina,-15.4667,-69.4333,6.8,83,43,4.05,PE,1711848627
544,malpe,13.35,74.7167,25.61,82,8,1.38,IN,1711848627
545,okhotsk,59.3833,143.3,-0.21,79,100,4.35,RU,1711848627
546,lavrio,37.7145,24.0565,17.91,78,100,2.62,GR,1711848627
547,vilyuysk,63.7553,121.6247,-15.0,91,66,1.79,RU,1711848627
