City_ID,City,Lat,Lng,Max Temp,Humidity,Cloudiness,Wind Speed,Country,Date
0,afaahiti,-17.75,-149.2833,27.93,80,72,8.98,PF,1711837839
1,hammerfest,70.6634,23.6821,-4.75,86,100,4.12,NO,1711837701
2,puerto natales,-51.7236,-72.4875,5.65,87,50,4.15,CL,1711837745
3,tiksi,71.6872,128.8694,-13.99,79,100,6.02,RU,1711837745
4,edinburgh of the seven seas,-37.0676,-12.3116,14.42,62,89,0.57,SH,1711837745
5,olonkinbyen,70.9221,-8.7187,-6.11,64,100,9.9,SJ,1711837745
6,nuuk,64.1835,-51.7216,-2.66,74,20,3.6,GL,1711837638
7,mar del plata,-38.0023,-57.5575,18.01,48,0,6.71,AR,1711837303
8,bilibino,68.0546,166.4372,-25.12,93,69,1.85,RU,1711837746
9,falenki,58.3613,51.5946,1.25,100,100,3.59,RU,1711837746
10,georgetown,5.4112,100.3354,27.75,90,20,1.54,MY,1711837703
11,fortuna,40.5982,-124.1573,16.63,65,20,5.14,US,1711837746
12,gemena,3.25,19.7667,25.94,56,87,1.1,CD,1711837746
13,thompson,55.7435,-97.8558,-5.91,68,75,4.63,CA,1711837447
14,port-aux-francais,-49.35,70.2167,5.32,89,100,9.12,TF,1711837747
15,launceston,-41.45,147.1667,16.8,77,75,0.0,AU,1711837548
16,saipan,15.1355,145.701,28.39,74,40,7.2,MP,1711837747
17,wewak,-3.5534,143.6268,26.57,87,100,1.87,PG,1711837747
18,port elizabeth,-33.918,25.5701,19.5,95,0,4.12,ZA,1711837747
19,port augusta,-32.5,137.7667,22.33,65,36,3.79,AU,1711837451
20,adamstown,-25.066,-130.1015,23.52,59,100,11.86,PN,1711837747
21,murun-kuren,49.6342,100.1625,3.32,67,100,0.82,MN,1711837747
22,hawaiian paradise park,19.5933,-154.9731,25.73,75,0,4.12,US,1711837748
23,nyagan,62.1406,65.3936,-15.83,94,15,0.76,RU,1711837748
24,malango,-2.9627,119.9001,19.54,97,89,1.08,ID,1711837748
25,sinan,34.8262,126.1086,5.06,67,45,6.36,KR,1711837748
26,port mathurin,-19.6833,63.4167,26.64,85,100,3.5,MU,1711837748
27,chibougamau,49.9168,-74.3659,-6.21,68,100,6.69,CA,1711837748
28,tromso,69.6496,18.957,-1.99,69,75,4.63,NO,1711837748
29,yellowknife,62.456,-114.3525,-4.71,42,75,3.6,CA,1711837749
30,lebu,-37.6167,-73.65,13.66,75,100,10.08,CL,1711837749
31,ribeira grande,38.5167,-28.7,13.21,80,100,4.02,PT,1711837749
32,waitangi,-43.9535,-176.5597,15.46,97,100,3.13,NZ,1711837749
33,bredasdorp,-34.5322,20.0403,19.56,76,24,1.96,ZA,1711837749
34,al ghayzah,16.2079,52.176,25.83,58,89,3.24,YE,1711837749
35,kingston,17.997,-76.7936,30.53,59,40,4.12,JM,1711837714
36,ilulissat,69.2167,-51.1,-9.99,73,20,0.0,GL,1711837750
37,bel ombre,-4.6167,55.4167,28.91,79,20,2.06,SC,1711837750
38,iqaluit,63.7506,-68.5145,-6.15,79,100,2.06,CA,1711837653
39,udachny,66.4167,112.4,-18.71,98,100,4.6,RU,1711837750
40,tosontsengel,48.7567,98.2839,-4.95,89,100,0.21,MN,1711837750
41,tsiombe,-25.3,45.4833,22.31,88,25,3.91,MG,1711837750
42,yueyang,29.3333,113.0919,18.84,89,91,4.61,CN,1711837751
43,mhamid,29.82,-5.72,17.02,51,0,10.21,MA,1711837751
44,bethel,41.3712,-73.414,14.45,34,0,6.69,US,1711837474
45,hermanus,-34.4187,19.2345,21.13,66,9,3.91,ZA,1711837751
46,west island,-12.1568,96.8225,26.99,74,50,6.69,CC,1711837751
47,illizi,26.4833,8.4667,24.89,9,18,2.2,DZ,1711837751
48,maintirano,-18.0667,44.0167,26.64,78,10,4.01,MG,1711837751
49,shasta lake,40.6804,-122.3708,14.19,59,96,1.15,US,1711837473
50,anadyr,64.75,177.4833,-18.72,77,40,4.0,RU,1711837752
51,coquimbo,-29.9533,-71.3436,16.85,88,75,4.12,CL,1711837325
52,phalodi,27.1333,72.3667,23.25,29,14,4.73,IN,1711837752
53,cill airne,52.05,-9.5167,5.29,96,59,2.53,IE,1711837752
54,rio brilhante,-21.8019,-54.5464,29.9,47,78,2.4,BR,1711837752
55,ghanzi,-21.5667,21.7833,21.45,56,100,1.66,BW,1711837752
56,al jumum,21.6169,39.6981,25.84,70,1,2.55,SA,1711837753
57,verkhnevilyuysk,63.4453,120.3167,-28.59,100,67,1.37,RU,1711837753
58,stanley,54.868,-1.6985,5.95,89,0,1.03,GB,1711837671
59,grytviken,-54.2811,-36.5092,0.87,84,74,6.78,GS,1711837753
60,hamilton,39.1834,-84.5333,24.35,48,40,10.8,US,1711837464
61,jamestown,42.097,-79.2353,5.01,98,100,1.54,US,1711837323
62,bashtanka,47.4072,32.4387,9.96,72,31,3.84,UA,1711837753
63,talnakh,69.4865,88.3972,-10.01,96,100,2.21,RU,1711837752
64,praya,14.9215,-23.5087,22.3,73,75,8.75,CV,1711837754
65,touros,-5.1989,-35.4608,26.37,85,100,1.41,BR,1711837754
66,yamba,-5.9,22.3,23.51,90,86,1.21,CD,1711837754
67,ma'an,26.9775,110.7211,19.65,89,2,2.03,CN,1711837755
68,kutum,14.2,24.6667,24.73,12,65,7.22,SD,1711837755
69,hithadhoo,-0.6,73.0833,28.58,74,33,1.36,MV,1711837755
70,fredonia,42.4401,-79.3317,6.14,88,100,1.54,US,1711837755
71,atafu village,-8.5421,-172.5159,29.9,72,12,5.74,TK,1711837755
72,puerto ayora,-0.7393,-90.3518,28.98,92,99,2.24,EC,1711837755
73,marshall,34.3834,-86.3333,24.84,42,0,2.57,US,1711837756
74,qaqortoq,60.7167,-46.0333,-2.89,87,96,2.01,GL,1711837756
75,mejit,10.2753,170.8646,27.13,82,36,9.16,MH,1711837756
76,papatowai,-46.5619,169.4708,11.02,78,98,1.34,NZ,1711837756
77,bata,1.8639,9.7658,27.71,85,91,3.33,GQ,1711837756
78,jendouba,36.5011,8.7802,13.01,88,40,1.03,TN,1711837756
79,tura,25.5198,90.2201,21.62,89,1,2.96,IN,1711837756
80,margaret river,-33.95,115.0667,16.28,90,76,4.93,AU,1711837756
81,nantucket,41.2835,-70.0995,10.61,66,0,8.23,US,1711837757
82,charters towers,-20.1,146.2667,22.08,72,15,3.64,AU,1711837725
83,tabou,4.423,-7.3528,26.82,87,100,2.09,CI,1711837757
84,luderitz,-26.6481,15.1594,16.55,89,17,0.6,NA,1711837757
85,karystos,38.0133,24.4161,19.68,49,58,1.34,GR,1711837757
86,dudinka,69.4058,86.1778,-11.85,97,100,1.79,RU,1711837757
87,whitehorse,60.7161,-135.0538,5.43,48,75,8.75,CA,1711837360
88,ilebo,-4.3167,20.5833,22.89,93,100,0.81,CD,1711837758
89,albany,42.6001,-73.9662,10.93,44,54,1.34,US,1711837591
90,kralendijk,12.15,-68.2667,27.99,61,40,5.66,BQ,1711837758
91,vorgashor,67.5833,63.95,-21.28,99,99,3.22,RU,1711837758
92,wailua homesteads,22.0669,-159.378,23.75,77,75,7.2,US,1711837758
93,zhangatas,43.5667,69.75,1.78,65,34,0.98,KZ,1711837758
94,happy valley-goose bay,53.3168,-60.3315,3.17,81,100,4.12,CA,1711837649
95,labuan bajo,-8.4964,119.8877,25.67,89,58,1.58,ID,1711837759
96,saint-joseph,-21.3667,55.6167,24.21,81,100,1.53,RE,1711837759
97,kuqa,41.7278,82.9364,15.15,26,100,5.1,CN,1711837759
98,freetown,8.484,-13.2299,25.68,75,76,4.54,SL,1711837759
99,ushuaia,-54.8,-68.3,5.81,61,0,9.26,AR,1711837728
100,krupka,50.6845,13.8582,14.45,57,54,5.36,CZ,1711837759
101,crane,31.3974,-102.3501,28.54,10,100,1.42,US,1711837760
102,punta arenas,-53.15,-70.9167,7.06,70,75,7.2,CL,1711837232
103,port blair,11.6667,92.75,27.43,72,18,1.48,IN,1711837760
104,dinghaicun,26.2847,119.7936,20.51,100,100,1.97,CN,1711837760
105,tolanaro,-25.0319,46.9987,24.04,94,40,0.0,MG,1711837760
106,blackmans bay,-43.0167,147.3167,14.07,91,100,0.89,AU,1711837761
107,pisco,-13.7,-76.2167,26.03,69,0,8.75,PE,1711837761
108,eastham,41.8301,-69.9739,11.65,59,0,5.66,US,1711837761
109,magadan,59.5667,150.8,-3.2,74,100,3.17,RU,1711837761
110,puerto baquerizo moreno,-0.9,-89.6,26.55,78,20,3.09,EC,1711837761
111,tommot,58.9564,126.2925,-20.12,98,100,0.83,RU,1711837761
112,urengoy,65.9667,78.3667,-11.26,94,100,6.68,RU,1711837761
113,ta`u,-14.2336,-169.5144,29.15,76,95,5.35,AS,1711837762
114,sussex,41.1834,-74.6663,14.49,31,100,2.06,US,1711837762
115,weno,7.4515,151.8468,27.97,94,75,5.14,FM,1711837762
116,wuwei,37.9281,102.6414,10.98,28,2,1.59,CN,1711837762
117,haiku-pauwela,20.9219,-156.3051,26.23,67,40,10.29,US,1711837762
118,utrik,11.2278,169.8474,26.98,81,34,9.56,MH,1711837763
119,invercargill,-46.4,168.35,10.57,96,85,0.89,NZ,1711837763
120,sainte-anne-des-monts,49.124,-66.4924,-2.07,100,100,16.46,CA,1711837763
121,batumi,41.6416,41.6359,13.99,62,0,6.17,GE,1711837763
122,iskateley,67.6803,53.1512,-15.55,93,61,3.13,RU,1711837763
123,kabinda,-6.1333,24.4833,21.44,90,92,0.72,CD,1711837764
124,lihue,21.9789,-159.3672,24.09,77,75,7.2,US,1711837748
125,kivsharivka,49.6213,37.7036,11.01,63,95,3.37,UA,1711837764
126,christchurch,-43.5333,172.6333,13.63,80,100,1.54,NZ,1711837646
127,mana,5.6592,-53.7767,26.85,84,99,4.13,GF,1711837764
128,rock falls,41.7798,-89.689,16.99,62,40,4.12,US,1711837764
129,wanning,18.8003,110.3967,24.71,93,2,4.96,CN,1711837764
130,cockburn town,21.4612,-71.1419,23.98,53,40,6.17,TC,1711837483
131,puerto san jose,13.9256,-90.8244,32.03,55,40,5.14,GT,1711837765
132,ancud,-41.8697,-73.8203,11.8,66,89,3.67,CL,1711837765
133,fada,9.5667,8.3,26.34,55,45,0.86,NG,1711837765
134,nova sintra,14.8667,-24.7167,19.67,71,9,5.39,CV,1711837765
135,rundu,-17.9333,19.7667,18.74,95,86,2.22,NA,1711837765
136,sungailiat,-1.85,106.1333,26.69,83,99,0.32,ID,1711837766
137,college,64.8569,-147.8028,7.18,44,75,3.6,US,1711837766
138,labytnangi,66.6572,66.4183,-19.35,87,30,3.89,RU,1711837766
139,tiquipaya,-17.3382,-66.2189,21.4,48,75,3.09,BO,1711837766
140,soio,-6.1349,12.3689,27.8,87,88,2.23,AO,1711837766
141,petropavlovsk-kamchatsky,53.0452,158.6483,-1.67,88,75,4.47,RU,1711837766
142,villa la angostura,-40.7617,-71.6463,8.34,69,76,3.21,AR,1711837766
143,klyuchi,52.2667,79.1667,-0.76,87,21,4.96,RU,1711837766
144,mount isa,-20.7333,139.5,24.87,88,100,2.06,AU,1711837767
145,xinyuan,37.3,99.0,-1.72,38,81,0.93,CN,1711837767
146,jaguarari,-10.2639,-40.1958,25.26,65,100,3.14,BR,1711837767
147,sturlic,45.0639,15.7781,9.51,62,83,2.07,BA,1711837767
148,shanklin,50.6261,-1.1785,8.57,89,99,3.58,GB,1711837767
149,eyl,7.9803,49.8164,26.99,69,45,4.5,SO,1711837767
150,armacao de buzios,-22.7469,-41.8817,25.03,87,10,6.83,BR,1711837768
151,tadine,-21.55,167.8833,24.73,68,74,5.5,NC,1711837768
152,xiongzhou,25.1167,114.3,21.91,95,100,1.72,CN,1711837768
153,heunghae,36.1125,129.3522,8.36,74,23,1.58,KR,1711837768
154,newman,37.3138,-121.0208,18.36,54,33,2.68,US,1711837769
155,laguna,38.421,-121.4238,17.64,61,75,5.14,US,1711837769
156,tomatlan,19.9333,-105.25,30.39,35,57,3.84,MX,1711837769
157,port lincoln,-34.7333,135.8667,17.03,78,0,0.81,AU,1711837769
158,tofol,5.3248,163.0078,28.26,80,100,9.69,FM,1711837769
159,igarka,67.4667,86.5833,-5.21,97,100,2.53,RU,1711837769
160,karacabey,40.2152,28.4038,11.21,71,2,1.03,TR,1711837770
161,curuca,-0.7289,-47.8481,25.04,92,100,0.73,BR,1711837770
162,nizhniy kuranakh,58.8353,125.4869,-21.03,99,100,1.0,RU,1711837770
163,north bend,43.4065,-124.2243,19.58,72,0,11.32,US,1711837605
164,niafunke,15.9322,-3.9906,34.61,15,100,4.34,ML,1711837770
165,labasa,-16.4167,179.3833,26.15,87,100,2.97,FJ,1711837770
166,bondo,3.8146,23.6866,23.58,79,95,1.96,CD,1711837771
167,xilin hot,43.9667,116.0333,-4.63,68,100,1.0,CN,1711837771
168,benguela,-12.5763,13.4055,26.67,87,100,2.5,AO,1711837771
169,hadibu,12.65,54.0333,26.47,71,17,3.67,YE,1711837771
170,vilyuysk,63.7553,121.6247,-27.78,100,68,1.79,RU,1711837771
171,san antonio de pale,-1.4014,5.6325,28.9,80,59,5.73,GQ,1711837771
172,urucui,-7.2294,-44.5561,26.54,86,83,1.54,BR,1711837771
173,gua musang,4.8823,101.9644,22.28,98,77,0.39,MY,1711837772
174,nizhnesortymskiy,62.4397,71.7603,-12.97,92,39,6.98,RU,1711837772
175,caleta de carquin,-11.0925,-77.6267,24.29,79,100,5.02,PE,1711837772
176,konarka,19.9,86.1167,26.2,79,27,7.58,IN,1711837772
177,avarua,-21.2078,-159.775,31.03,70,20,7.2,CK,1711837772
178,valparaiso,-33.0393,-71.6273,29.52,53,0,6.17,CL,1711837761
179,judenburg,47.1667,14.6667,6.71,90,93,1.49,AT,1711837773
180,lata,40.1629,-8.3327,8.37,96,80,2.02,PT,1711837773
181,pala,9.3642,14.9046,33.11,13,35,1.35,TD,1711837773
182,puerto ayacucho,5.6639,-67.6236,34.73,35,92,1.3,VE,1711837773
183,shetpe,44.1667,52.1167,9.96,46,100,3.2,KZ,1711837773
184,namibe,-15.1961,12.1522,23.56,82,95,2.2,AO,1711837773
185,gamba,-2.65,10.0,27.02,87,96,2.46,GA,1711837774
186,mutuali,-14.8706,37.0044,18.6,93,24,1.53,MZ,1711837774
187,longyearbyen,78.2186,15.6401,-24.09,70,75,4.12,SJ,1711837774
188,yunyang,33.4474,112.7142,14.65,46,49,1.44,CN,1711837774
189,holualoa,19.6228,-155.9522,24.91,76,40,5.66,US,1711837774
190,warrnambool,-38.3833,142.4833,13.25,85,1,2.99,AU,1711837774
191,muynoq,43.7683,59.0214,4.9,70,97,3.2,UZ,1711837774
192,fort st. john,56.2499,-120.8529,8.94,21,75,2.57,CA,1711837651
193,nar'yan-mar,67.6713,53.087,-15.5,93,56,3.13,RU,1711837775
194,howard springs,-12.497,131.047,26.6,97,98,2.15,AU,1711837775
195,inirida,3.8653,-67.9239,31.83,55,95,0.4,CO,1711837775
196,chamical,-30.36,-66.314,31.9,38,3,3.63,AR,1711837775
197,puerto madero,14.7208,-92.4215,33.11,46,20,5.14,MX,1711837531
198,santa cruz,-17.8,-63.1667,30.03,62,40,5.66,BO,1711837776
199,kapuskasing,49.4169,-82.4331,1.05,37,75,3.6,CA,1711837777
200,panuco,22.05,-98.1667,27.1,41,2,7.16,MX,1711837777
201,kasongo,-4.45,26.6667,22.55,90,100,0.71,CD,1711837777
202,basco,20.4487,121.9702,26.82,88,100,9.18,PH,1711837777
203,alzamay,55.5562,98.6644,-3.92,98,100,1.42,RU,1711837777
204,essaouira,31.5125,-9.77,17.72,94,75,6.69,MA,1711837777
205,guozhen,34.3659,107.359,15.08,49,0,1.17,CN,1711837778
206,praia da vitoria,38.7333,-27.0667,12.14,82,40,11.95,PT,1711837778
207,merizo village,13.2658,144.6691,28.88,81,55,8.78,GU,1711837778
208,sao jose da coroa grande,-8.8978,-35.1478,24.55,89,100,1.99,BR,1711837778
209,nuevo laredo,27.4763,-99.5164,31.15,48,20,6.17,MX,1711837778
210,nemuro,43.3236,145.575,1.66,93,94,8.34,JP,1711837779
211,chonchi,-42.6128,-73.8092,11.56,67,96,1.48,CL,1711837779
212,tynda,55.1667,124.7167,-18.99,90,100,2.07,RU,1711837779
213,arvayheer,46.2639,102.775,1.67,52,60,1.89,MN,1711837779
214,maiurno,13.4167,33.6667,30.49,13,100,7.0,SD,1711837779
215,flin flon,54.7682,-101.865,-3.09,74,100,2.57,CA,1711837779
216,ishigaki,24.3448,124.1572,25.07,100,100,4.12,JP,1711837780
217,lethbridge,49.7,-112.8186,5.27,65,20,4.12,CA,1711837493
218,vilyuchinsk,52.9306,158.4028,-0.85,94,100,4.12,RU,1711837780
219,laayoune,27.1622,-13.2032,17.19,100,2,2.57,EH,1711837780
220,noosa heads,-26.3833,153.15,22.84,77,99,5.12,AU,1711837602
221,rongelap,11.1635,166.8941,27.18,79,77,8.22,MH,1711837780
222,port alfred,-33.5906,26.891,18.99,91,46,0.89,ZA,1711837781
223,taltal,-25.4,-70.4833,21.12,79,27,2.8,CL,1711837873
224,mariinsk,56.2139,87.7472,1.17,85,86,5.76,RU,1711837781
225,ketchikan,55.3422,-131.6461,8.26,61,75,3.6,US,1711837781
226,hemsby,52.6971,1.6918,8.88,87,5,3.76,GB,1711837781
227,uturoa,-16.7333,-151.4333,28.96,77,73,8.8,PF,1711837781
228,bengbu,32.9408,117.3608,11.19,81,100,5.87,CN,1711837782
229,shiguai,40.7058,110.2856,6.2,33,15,1.1,CN,1711837782
230,namtsy,62.7161,129.6658,-28.02,99,35,1.95,RU,1711837782
231,isafjordur,66.0755,-23.124,-3.5,84,99,12.82,IS,1711837782
232,severo-yeniseyskiy,60.3725,93.0408,-1.9,95,100,2.68,RU,1711837782
233,leh,34.1667,77.5833,-8.15,84,93,1.7,IN,1711837782
234,kristiansund,63.1115,7.732,7.03,87,75,1.54,NO,1711837599
235,tralee,52.2704,-9.7026,5.37,95,41,3.45,IE,1711837783
236,vorkuta,67.5,64.0,-21.62,99,99,3.22,RU,1711837783
237,minas de marcona,-15.2119,-75.1103,20.66,69,35,6.47,PE,1711837783
238,sitia,35.2,26.0986,16.66,60,62,1.37,GR,1711837783
239,inarajan village,13.2736,144.7484,29.11,81,47,8.78,GU,1711837783
240,isangel,-19.55,169.2667,25.06,78,40,0.0,VU,1711837783
241,ilha de mocambique,-15.0342,40.7358,26.7,80,63,5.93,MZ,1711837783
242,east london,-33.0153,27.9116,21.43,78,40,9.04,ZA,1711837784
243,carnarvon,-24.8667,113.6333,24.82,58,49,7.0,AU,1711837784
244,ust-nera,64.5667,143.2,-14.41,96,100,2.51,RU,1711837784
245,prince george,53.9166,-122.753,7.92,46,100,3.09,CA,1711837784
246,enewetak,11.3474,162.3373,27.06,81,100,8.63,MH,1711837784
247,alice springs,-23.7,133.8833,21.79,88,100,2.24,AU,1711837784
248,porto novo,6.4965,2.6036,28.62,80,100,4.08,BJ,1711837764
249,basoko,1.2391,23.616,22.53,96,100,2.47,CD,1711837785
250,new norfolk,-42.7826,147.0587,14.72,87,99,0.56,AU,1711837785
251,yuzhno-kurilsk,44.0306,145.8556,0.76,79,97,5.86,RU,1711837785
252,amungan,15.3652,119.9582,26.11,68,96,2.14,PH,1711837785
253,ciudad lazaro cardenas,17.9583,-102.2,29.24,49,23,5.84,MX,1711837785
254,bamyan,34.75,67.25,-8.63,96,74,1.03,AF,1711837785
255,buritis,-15.6178,-46.4233,25.43,81,95,1.05,BR,1711837785
256,kodiak,57.79,-152.4072,6.73,93,100,9.26,US,1711837786
257,pacific grove,36.6177,-121.9166,15.96,78,100,2.57,US,1711837756
258,yung shue wan,22.2333,114.1167,26.68,87,15,3.38,HK,1711837786
259,kerikeri,-35.2268,173.9474,18.84,67,1,0.89,NZ,1711837786
260,inhambane,-23.865,35.3833,23.51,71,41,5.07,MZ,1711837786
261,val-d'or,48.1002,-77.7828,1.05,51,75,6.17,CA,1711837521
262,kolonia,50.9333,6.95,11.09,83,40,1.54,DE,1711837787
263,gembu,6.7,11.2667,21.25,65,47,2.26,NG,1711837787
264,sitka,57.0531,-135.33,8.94,66,100,3.09,US,1711837787
265,imbituba,-28.24,-48.6703,22.74,94,0,2.82,BR,1711837787
266,tocopilla,-22.092,-70.1979,22.66,72,23,3.82,CL,1711837787
267,remire-montjoly,4.9167,-52.2667,27.02,89,0,1.54,GF,1711837787
268,manaure,11.7751,-72.4445,29.8,56,59,9.78,CO,1711837788
269,tarata,-17.6167,-66.0167,20.68,53,49,3.05,BO,1711837788
270,mili,6.0815,171.735,28.12,80,60,8.69,MH,1711837788
271,yekaterinburg,56.8575,60.6125,2.77,87,100,5.0,RU,1711837533
272,usinsk,65.9939,57.5281,-22.74,100,31,1.34,RU,1711837788
273,mytilene,39.11,26.5547,15.12,75,7,2.07,GR,1711837788
274,port pirie,-33.1833,138.0167,22.32,62,45,1.2,AU,1711837788
275,zhalantun,48.0,122.7167,-7.9,56,41,8.14,CN,1711837789
276,curup,-3.4667,102.5333,20.99,98,100,1.29,ID,1711837789
277,qui nhon,13.7667,109.2333,24.94,89,100,1.81,VN,1711837688
278,bathsheba,13.2167,-59.5167,27.34,83,75,5.14,BB,1711837789
279,plettenberg bay,-34.0527,23.3716,20.81,70,62,1.76,ZA,1711837789
280,pont rouge,48.8833,-72.0825,-1.84,60,97,7.84,CA,1711837789
281,sinop,41.7711,34.8709,14.91,60,100,4.66,TR,1711837685
282,gaiman,-43.2897,-65.4929,16.51,17,91,8.69,AR,1711837790
283,vila franca do campo,37.7167,-25.4333,13.23,75,100,9.24,PT,1711837790
284,beira,-19.8436,34.8389,25.05,94,20,5.66,MZ,1711837790
285,brisas de zicatela,15.8369,-97.0419,32.29,45,0,4.12,MX,1711837790
286,mount pearl,47.5166,-52.7813,5.64,95,75,2.57,CA,1711837702
287,oropesa del mar,40.1,0.15,14.39,67,75,9.71,ES,1711837790
288,cobija,-11.0267,-68.7692,24.95,97,100,1.06,BO,1711837790
289,waspan,14.7419,-83.9717,27.14,82,65,1.64,NI,1711837791
290,chinde,26.8418,88.0763,16.14,68,0,2.1,NP,1711837791
291,ojinaga,29.5667,-104.4167,30.53,13,0,2.57,MX,1711837791
292,rameswaram,9.2833,79.3,28.49,76,51,6.95,IN,1711837791
293,sandnessjoen,66.0217,12.6316,1.29,90,100,1.45,NO,1711837791
294,susuman,62.7833,148.1667,-8.34,96,100,1.34,RU,1711837791
295,waat,51.1454,6.4958,10.95,94,75,0.0,DE,1711837791
296,naha,26.2125,127.6811,22.21,94,75,3.09,JP,1711837791
297,valley city,46.9233,-98.0032,1.29,69,100,5.14,US,1711837663
298,katsuren-haebaru,26.3369,127.8719,22.27,93,0,1.54,JP,1711837792
299,barcelos,41.5388,-8.6151,8.29,89,98,1.16,PT,1711837753
300,popondetta,-8.7537,148.2534,28.13,75,80,0.03,PG,1711837792
301,silver city,32.7701,-108.2803,19.82,19,0,10.29,US,1711837792
302,weyburn,49.6668,-103.8511,-0.88,47,9,6.69,CA,1711837535
303,broken hill,-31.95,141.4333,22.57,78,100,2.27,AU,1711837792
304,luba,3.4568,8.5547,28.43,84,29,3.5,GQ,1711837792
305,geraldton,-28.7667,114.6,16.23,94,100,4.12,AU,1711837793
306,springfield,37.2153,-93.2982,22.9,64,75,4.12,US,1711837589
307,yarmouth,41.7057,-70.2286,13.26,57,0,7.2,US,1711837793
308,loiza,18.4313,-65.8802,27.81,72,20,5.14,PR,1711837793
309,hassi messaoud,31.6804,6.0729,21.92,21,0,1.03,DZ,1711837793
310,poyang,28.9924,116.6675,19.37,97,100,6.95,CN,1711837793
311,bahir dar,11.5936,37.3908,23.14,24,88,2.48,ET,1711837793
312,swakopmund,-22.6833,14.5333,14.43,88,6,2.76,NA,1711837794
313,adjumani,3.3779,31.7909,23.4,74,83,2.34,UG,1711837794
314,sweetwater,25.7634,-80.3731,25.01,57,40,5.14,US,1711837591
315,dauphin,51.1494,-100.0502,-1.92,59,0,8.23,CA,1711837794
316,onega,63.9061,38.1404,-1.37,98,100,0.53,RU,1711837794
317,lluta,-16.0147,-72.0142,12.68,87,98,3.37,PE,1711837794
318,mandera,3.9366,41.867,30.59,50,100,8.12,KE,1711837794
319,bajos del ejido,16.95,-99.9667,27.92,46,7,3.9,MX,1711837795
320,tobelo,1.7284,128.0095,27.24,85,76,2.75,ID,1711837795
321,qamdo,31.1667,97.2333,-0.07,60,100,2.28,CN,1711837795
322,puerto colombia,10.9878,-74.9547,30.05,74,9,11.63,CO,1711837795
323,ban karon,7.8477,98.2985,26.95,79,54,2.74,TH,1711837795
324,kruisfontein,-34.0033,24.7314,18.27,87,43,2.34,ZA,1711837795
325,metlili chaamba,32.2667,3.6333,21.52,18,0,4.63,DZ,1711837795
326,mugia,43.1041,-9.2179,7.17,70,99,5.41,ES,1711837796
327,tazovsky,67.4667,78.7,-13.23,94,100,6.17,RU,1711837796
328,plock,52.5468,19.7064,14.39,61,95,4.58,PL,1711837796
329,oriximina,-1.7656,-55.8661,25.41,84,100,2.46,BR,1711837796
330,sisimiut,66.9395,-53.6735,-6.82,77,38,3.02,GL,1711837796
331,fort bragg,35.139,-79.006,25.91,20,0,6.17,US,1711837745
332,ilam,26.9167,87.9167,17.43,76,0,2.3,NP,1711837796
333,fetsund,59.929,11.1625,6.43,99,100,1.86,NO,1711837796
334,timbuktu,16.7735,-3.0074,33.25,15,98,4.65,ML,1711837797
335,lompoc,34.6391,-120.4579,14.45,72,100,5.36,US,1711837797
336,ornskoldsvik,63.2909,18.7153,0.53,100,100,1.03,SE,1711837797
337,westport,41.1415,-73.3579,15.99,29,0,6.17,US,1711837793
338,sosnovo-ozerskoye,52.5249,111.5418,-14.07,74,82,0.26,RU,1711837797
339,uberlingen,47.7667,9.1667,11.59,72,97,0.89,DE,1711837797
340,aasiaat,68.7098,-52.8699,-14.68,88,43,3.56,GL,1711837798
341,lethem,3.3803,-59.7968,31.42,53,100,1.76,GY,1711837798
342,kirakira,-10.4544,161.9205,28.98,76,83,1.37,SB,1711837798
343,greenland,43.0362,-70.8328,12.94,30,20,5.66,US,1711837798
344,akureyri,65.6835,-18.0878,-2.04,86,75,5.14,IS,1711837798
345,tan-tan,28.438,-11.1032,17.8,78,0,3.77,MA,1711837798
346,kailua-kona,19.6406,-155.9956,26.98,76,40,5.66,US,1711837619
347,agat village,13.3886,144.6585,29.09,75,20,7.2,GU,1711837799
348,concepcion,-36.827,-73.0498,19.89,45,0,4.63,CL,1711837595
349,acarau,-2.8856,-40.12,26.74,83,100,2.25,BR,1711837507
350,howrah,22.5892,88.3103,28.0,89,40,4.12,IN,1711837799
351,st. john's,47.5649,-52.7093,6.1,95,75,2.57,CA,1711837609
352,gore,-46.1028,168.9436,9.42,90,88,0.57,NZ,1711837799
353,el bauga,18.262,33.9081,22.92,15,0,5.12,SD,1711837800
354,rabaul,-4.1967,152.1721,27.71,78,29,1.43,PG,1711837800
355,cole harbour,44.6724,-63.4751,3.29,77,100,5.36,CA,1711837800
356,puerto deseado,-47.7503,-65.8938,9.77,54,58,5.13,AR,1711837801
357,nagqu,31.5,92.0,-3.07,74,97,1.35,CN,1711837801
358,fale old settlement,-9.3852,-171.2468,29.71,73,17,6.22,TK,1711837801
359,santander,43.4647,-3.8044,10.81,85,75,3.6,ES,1711837669
360,queenstown,-31.8976,26.8753,14.09,87,1,0.87,ZA,1711837801
361,hacienda huancane,-15.8222,-70.8856,6.22,78,98,4.33,PE,1711837802
362,cradock,-32.1642,25.6192,20.7,48,2,1.67,ZA,1711837802
363,kodinar,20.7903,70.7031,23.4,59,1,5.81,IN,1711837802
364,tirthahalli,13.7,75.2333,19.35,95,6,0.74,IN,1711837802
365,tshikapa,-6.4167,20.8,23.78,90,100,0.36,CD,1711837720
366,bokovskaya,49.229,41.8306,11.59,84,80,1.98,RU,1711837802
367,sinabang,2.4803,96.3801,26.44,86,87,1.76,ID,1711837803
368,xining,36.6167,101.7667,7.0,34,89,0.48,CN,1711837666
369,saurimo,-9.6608,20.3916,19.35,96,98,1.43,AO,1711837803
370,kindu,-2.95,25.95,22.23,98,100,1.23,CD,1711837804
371,cidreira,-30.1811,-50.2056,22.82,87,0,4.2,BR,1711837804
372,collie,-33.3667,116.15,12.3,97,43,1.92,AU,1711837804
373,damasak,13.0977,12.4952,32.66,10,100,4.11,NG,1711837804
374,megion,61.0296,76.1136,-3.99,89,47,7.57,RU,1711837805
375,saint-junien,45.8833,0.9,10.32,94,79,3.39,FR,1711837805
376,menaka,15.9182,2.4022,33.7,12,81,4.36,ML,1711837805
377,danielskuil,-28.1887,23.5395,19.95,59,78,7.69,ZA,1711837805
378,flying fish cove,-10.4217,105.6791,25.82,88,100,4.12,CX,1711837805
379,qarqaraly,49.4058,75.4742,-4.68,81,100,6.04,KZ,1711837806
380,walvis bay,-22.9575,14.5053,14.49,91,1,2.74,NA,1711837806
381,raymondville,26.4815,-97.7831,28.06,63,53,8.31,US,1711837806
382,lerwick,60.1545,-1.1494,7.0,92,26,3.51,GB,1711837573
383,puerto aysen,-45.4,-72.7,7.53,97,88,2.08,CL,1711837520
384,ferkessedougou,9.6,-5.2,30.26,50,100,2.77,CI,1711837806
385,mariakani,-3.8633,39.4736,29.05,93,52,1.58,KE,1711837806
386,naze,28.3667,129.4833,15.51,78,80,2.41,JP,1711837806
387,banjarmasin,-3.3244,114.591,26.08,96,56,1.25,ID,1711837511
388,livramento do brumado,-13.6431,-41.8406,26.37,56,88,1.35,BR,1711837807
389,paramonga,-10.6667,-77.8333,23.63,82,99,3.66,PE,1711837807
390,acapulco de juarez,16.8634,-99.8901,27.9,69,0,5.66,MX,1711837780
391,villa gesell,-37.2639,-56.973,18.36,49,98,7.59,AR,1711837698
392,salalah,17.0151,54.0924,26.05,69,20,1.03,OM,1711837807
393,saint-philippe,-21.3585,55.7679,24.77,84,100,3.58,RE,1711837807
394,raver,21.25,76.0333,28.77,31,2,1.89,IN,1711837808
395,constantia,44.1833,28.65,10.39,85,3,4.92,RO,1711837808
396,tanjungagung,-3.9333,103.8,23.42,98,100,0.77,ID,1711837808
397,port isabel,26.0734,-97.2086,26.05,76,100,7.72,US,1711837560
398,selkirk,50.1436,-96.8845,1.72,76,99,2.24,CA,1711837808
399,conde,-7.2597,-34.9075,26.7,94,0,0.51,BR,1711837808
400,gazli,40.1333,63.45,8.97,31,4,4.49,UZ,1711837809
401,muisne,0.6,-80.0333,26.65,83,100,2.94,EC,1711837809
402,vernal,40.4555,-109.5287,8.84,60,100,1.79,US,1711837664
403,al marj,32.488,20.8317,17.06,41,48,6.27,LY,1711837809
404,questembert,47.6667,-2.4667,11.27,81,0,5.66,FR,1711837809
405,msanga,-6.05,36.0333,20.12,94,96,1.84,TZ,1711837809
406,turochak,52.2576,87.1224,0.09,95,99,1.49,RU,1711837810
407,ouargaye,11.5033,0.0572,35.53,14,98,0.77,BF,1711837810
408,jayapura,-2.5333,140.7,26.66,90,94,1.34,ID,1711837810
409,az zawr,29.4425,48.2747,23.34,66,83,6.38,KW,1711837810
410,sumberpucung,-8.1586,112.4829,23.7,96,92,1.34,ID,1711837810
411,bandarbeyla,9.4942,50.8122,27.2,68,56,3.8,SO,1711837810
412,ippy,6.2679,21.2247,27.33,33,29,0.72,CF,1711837811
413,kayangel,8.0823,134.7173,27.82,77,92,8.02,PW,1711837811
414,zapolyarnyy,69.4154,30.8136,-5.4,96,100,2.11,RU,1711837811
415,natal,-5.795,-35.2094,26.36,94,0,3.09,BR,1711837421
416,island harbour,50.724,-1.2758,9.4,89,98,3.58,GB,1711837811
417,hereford,52.0568,-2.7148,7.79,83,47,1.52,GB,1711837794
418,raghunathpur,23.55,86.6667,29.16,45,2,2.24,IN,1711837811
419,gaspe,48.8334,-64.4819,3.12,87,100,4.63,CA,1711837812
420,fray luis beltran,-39.3167,-65.7667,18.54,16,53,3.78,AR,1711837812
421,cromer,52.9312,1.2989,8.71,66,11,3.58,GB,1711837812
422,dwarka,22.2394,68.9678,23.88,71,0,4.52,IN,1711837812
423,celendin,-6.8703,-78.1517,19.29,77,100,1.92,PE,1711837812
424,ascension,30.2169,-90.9001,27.83,51,75,4.63,US,1711837812
425,bardai,11.65,7.2333,29.87,15,26,1.88,NG,1711837813
426,farafangana,-22.8167,47.8333,23.36,92,7,1.48,MG,1711837813
427,kuta,-8.7233,115.1723,26.97,88,20,1.54,ID,1711837813
428,penhalonga,-18.8911,32.6978,14.61,95,83,1.63,ZW,1711837813
429,hami,42.8,93.45,14.62,37,96,6.53,CN,1711837813
430,hauterive,46.0901,3.4459,7.22,80,51,4.27,FR,1711837814
431,general acha,-37.377,-64.6043,18.18,32,91,4.05,AR,1711837814
432,lazaro cardenas,17.9583,-102.2,28.39,52,37,5.42,MX,1711837814
433,kavaratti,10.5669,72.642,28.31,74,43,2.71,IN,1711837814
434,arraial do cabo,-22.9661,-42.0278,23.93,92,7,8.56,BR,1711837745
435,masaka,-0.3338,31.7341,18.88,92,100,1.48,UG,1711837815
436,la ronge,55.1001,-105.2842,-2.88,63,75,1.54,CA,1711837815
437,birao,10.2849,22.7882,28.61,11,100,3.55,CF,1711837815
438,tateyama,34.9833,139.8667,16.72,80,8,9.77,JP,1711837815
439,rio grande,-32.035,-52.0986,24.06,84,1,2.79,BR,1711837815
440,saint-pierre,-21.3393,55.4781,24.82,78,100,2.57,RE,1711837660
441,east concord,43.242,-71.5381,12.01,30,0,4.63,US,1711837815
442,mbeni,-11.5014,43.3775,25.32,75,83,2.47,KM,1711837816
443,patong,7.8961,98.2966,27.08,79,57,1.92,TH,1711837816
444,kyshtovka,56.555,76.6271,-1.48,91,100,4.92,RU,1711837816
445,kandira,41.0736,30.1746,10.1,65,81,2.5,TR,1711837816
446,tangalle,6.024,80.7911,25.08,90,32,2.63,LK,1711837816
447,arkhangel'sk,64.5401,40.5433,-1.94,64,75,2.0,RU,1711837817
448,mersa matruh,31.3525,27.2453,16.11,88,0,3.6,EG,1711837817
449,skovorodino,53.9833,123.9167,-14.94,81,97,2.91,RU,1711837590
450,palikir - national government center,6.9248,158.1611,29.41,79,100,5.14,FM,1711837817
451,meadow lakes,61.6247,-149.6011,4.5,74,100,5.66,US,1711837817
452,general conesa,-40.1,-64.4333,16.92,20,19,4.45,AR,1711837818
453,broome,42.2506,-75.833,10.36,55,100,0.45,US,1711837818
454,inongo,-1.95,18.2667,23.52,90,92,1.51,CD,1711837818
455,harstad,68.799,16.5293,-1.58,94,100,3.13,NO,1711837818
456,port moresby,-9.4431,147.1797,26.78,85,100,1.25,PG,1711837771
457,shiyan,32.6475,110.7781,15.31,66,0,1.02,CN,1711837818
458,garoowe,8.4054,48.4845,21.84,86,19,4.46,SO,1711837818
459,tarakan,3.3,117.6333,25.72,94,40,0.0,ID,1711837819
460,kurumkan,54.3,110.3,-13.26,71,92,1.79,RU,1711837819
461,harper,4.375,-7.7169,26.73,88,99,1.79,LR,1711837819
462,sungai penuh,-2.0833,101.3833,18.51,96,97,1.15,ID,1711837819
463,muroto-misakicho,33.2833,134.15,16.82,73,2,1.55,JP,1711837819
464,giengen an der brenz,48.6222,10.2431,10.77,75,94,3.18,DE,1711837819
465,waingapu,-9.6567,120.2641,26.41,80,16,1.92,ID,1711837820
466,andovoranto,-18.95,49.1,24.61,90,95,1.07,MG,1711837820
467,strezhevoy,60.7333,77.5889,-3.35,95,78,4.92,RU,1711837820
468,patterson,37.4716,-121.1297,18.34,55,75,2.86,US,1711837553
469,maracacume,-2.0428,-45.9592,24.44,98,100,1.03,BR,1711837820
470,porbandar,21.6422,69.6093,23.24,74,0,3.71,IN,1711837821
471,sake,-1.5736,29.045,18.83,95,100,0.95,CD,1711837821
472,badou,7.5833,0.6,26.55,77,73,1.73,TG,1711837821
473,rantauprapat,2.1,99.8333,23.07,98,100,0.94,ID,1711837821
474,ormara,25.2088,64.6357,24.82,31,12,4.41,PK,1711837821
475,aldinga beach,-35.2793,138.4604,24.49,51,0,2.55,AU,1711837596
476,sao joao da barra,-21.6403,-41.0511,24.05,94,98,2.62,BR,1711837822
477,beloyarskiy,63.7119,66.6722,-21.11,99,6,1.34,RU,1711837822
478,arawa,-6.2132,155.5367,28.79,84,99,0.46,PG,1711837822
479,ust'-ilimsk,58.0006,102.6619,-4.76,92,100,4.02,RU,1711837822
480,bamboo flat,11.7,92.7167,27.36,74,18,1.51,IN,1711837823
481,labrador city,52.9463,-66.9114,0.95,93,100,3.58,CA,1711837810
482,ribeira brava,32.65,-17.0667,19.84,81,82,8.6,PT,1711837823
483,kimberley,-28.7323,24.7623,19.83,68,18,3.6,ZA,1711837823
484,omachi,36.5,137.8667,10.62,76,80,0.8,JP,1711837824
485,boysun,38.2061,67.1986,2.74,81,23,1.21,UZ,1711837824
486,santa maria da vitoria,-13.3947,-44.1886,26.91,56,24,0.39,BR,1711837824
487,hilo,19.7297,-155.09,25.85,70,0,4.12,US,1711837658
488,dinguiraye,11.3,-10.7167,32.01,19,98,0.63,GN,1711837824
489,belogorsk,50.9158,128.4611,-4.87,80,100,7.45,RU,1711837824
490,ghat,24.9647,10.1728,24.46,8,22,2.37,LY,1711837825
491,progreso,21.2833,-89.6667,35.06,73,0,7.89,MX,1711837825
492,nova vicosa,-17.8919,-39.3719,26.27,87,64,3.29,BR,1711837825
493,praia,14.9215,-23.5087,22.3,73,75,8.75,CV,1711837650
494,plastun,44.7561,136.2939,1.97,51,4,4.77,RU,1711837825
495,salekhard,66.53,66.6019,-20.63,89,11,3.47,RU,1711837825
496,champerico,14.3,-91.9167,33.3,63,0,5.17,GT,1711837826
497,farasan,16.7022,42.1183,28.55,80,100,5.65,SA,1711837826
498,indre arna,60.4247,5.4764,7.12,85,100,1.68,NO,1711837826
499,canutama,-6.5339,-64.3831,24.49,95,100,0.5,BR,1711837826
500,san patricio,28.017,-97.5169,26.97,65,89,7.91,US,1711837826
501,mu'minobod,38.1085,70.0285,3.35,86,87,2.33,TJ,1711837827
502,kamina,-8.7386,24.9906,18.97,94,100,0.25,CD,1711837827
503,san pedro pochutla,15.7333,-96.4667,31.84,41,2,3.62,MX,1711837827
504,esquina,-30.0144,-59.5272,27.19,62,46,2.61,AR,1711837827
505,islamkot,24.6997,70.177,20.58,66,0,4.57,PK,1711837827
506,tsetserleg,47.475,101.4542,3.41,45,94,1.72,MN,1711837828
507,bembibre,42.6177,-6.4155,4.59,98,100,1.83,ES,1711837828
508,itoman,26.1247,127.6694,22.27,94,75,3.09,JP,1711837828
509,ati,13.2154,18.3353,30.6,11,100,4.64,TD,1711837829
510,bilajer,40.5681,50.0378,8.9,87,0,0.0,AZ,1711837829
511,zeya,53.75,127.2667,-9.17,86,100,2.64,RU,1711837829
512,ebaye,8.7748,167.7392,30.01,74,40,7.72,MH,1711837829
513,al mawsil al jadidah,36.3346,43.0978,16.09,55,4,1.5,IQ,1711837829
514,hofbieber,50.5863,9.8353,9.71,86,100,0.72,DE,1711837829
515,antofagasta,-23.65,-70.4,20.6,80,29,3.06,CL,1711837761
516,revelstoke,50.9832,-118.2023,10.01,37,75,5.66,CA,1711837537
517,pedernales,18.0384,-71.744,26.22,77,56,1.25,DO,1711837830
518,horsham,51.064,-0.3272,8.78,75,0,2.57,GB,1711837623
519,dalbandin,28.8947,64.4101,14.74,19,23,1.62,PK,1711837830
520,faya-largeau,17.9257,19.1043,30.02,10,69,5.82,TD,1711837830
521,sibolga,1.7427,98.7792,24.64,91,100,0.94,ID,1711837831
522,shanwei,22.782,115.3475,23.82,92,74,3.74,CN,1711837831
523,posse,-14.0931,-46.3694,23.97,79,88,0.37,BR,1711837831
524,bubaque,11.2833,-15.8333,25.42,76,45,9.73,GW,1711837831
525,camargo,27.6667,-105.1667,30.24,5,100,4.39,MX,1711837831
526,phan rang-thap cham,11.5667,108.9833,24.74,86,99,1.41,VN,1711837831
527,lima,-12.0432,-77.0282,23.14,73,20,5.66,PE,1711837545
528,cabedelo,-6.9811,-34.8339,27.37,83,100,2.27,BR,1711837832
529,villa ocampo,-28.4875,-59.3551,28.52,53,67,2.96,AR,1711837832
530,alesund,62.4723,6.1549,7.51,87,0,2.57,NO,1711837832
531,moab,38.5733,-109.5498,22.01,18,100,1.34,US,1711837624
532,margate,51.3813,1.3862,10.5,91,72,1.79,GB,1711837832
533,sidi akkacha,36.4647,1.3026,16.16,72,100,5.43,DZ,1711837832
534,vanino,49.0869,140.2543,1.63,70,100,4.49,RU,1711837833
535,alofi,-19.0595,-169.9187,30.94,74,20,3.6,NU,1711837833
536,lubango,-14.9172,13.4925,16.15,87,95,1.66,AO,1711837833
537,le port,-20.9373,55.2919,25.0,83,100,2.28,RE,1711837833
538,cabo san lucas,22.8909,-109.9124,26.77,58,75,6.69,MX,1711837313
539,camana,-16.6228,-72.7111,22.8,81,64,2.46,PE,1711837833
540,copala,16.65,-98.9833,30.02,52,5,4.85,MX,1711837833
541,hastings,50.8552,0.5729,10.51,81,95,4.67,GB,1711837581
542,vadso,70.0744,29.7487,-4.51,93,100,6.69,NO,1711837834
543,beyla,8.6833,-8.6333,25.34,71,86,1.37,GN,1711837834
544,dongguan,23.0489,113.7447,24.95,86,87,3.31,CN,1711837834
545,berdigestyakh,62.0989,126.6992,-22.58,100,100,1.58,RU,1711837834
546,morteros,-30.7116,-61.9986,32.23,45,100,3.19,AR,1711837834
547,franklin,39.9667,-83.0166,22.35,65,100,7.72,US,1711837781
548,noyabrsk,63.1994,75.4507,-12.25,91,100,9.93,RU,1711837835
549,nadi,-17.8,177.4167,26.0,89,75,3.09,FJ,1711837835
550,ulladulla,-35.35,150.4667,20.42,76,48,0.9,AU,1711837835
551,emerald,-23.5333,148.1667,24.08,66,91,3.58,AU,1711837740
552,khargapur,24.823,79.144,27.63,27,10,3.53,IN,1711837835
553,la passe,45.5549,-0.8967,10.55,88,69,4.5,FR,1711837835
554,bac lieu,9.285,105.7244,26.89,83,83,1.53,VN,1711837835
555,port saint john's,-31.6229,29.5448,21.45,82,18,6.92,ZA,1711837836
556,la'ie,21.6477,-157.9253,26.98,87,82,1.79,US,1711837836
557,egilsstadir,65.2653,-14.3948,-3.05,93,100,10.8,IS,1711837836
558,badger,64.8,-147.5333,7.14,38,0,3.6,US,1711837836
